[
    {
        "code": "GRU",
        "name": "São Paulo/Guarulhos – Governor André Franco Montoro International Airport",
        "city": "São Paulo",
        "country": "Brazil",
        "timezone": "America/Sao_Paulo",
        "lat": -23.435556,
        "lng": -46.473056
    },
    {
        "code": "GIG",
        "name": "Rio de Janeiro/Galeão – Antonio Carlos Jobim International Airport",
        "city": "Rio de Janeiro",
        "country": "Brazil",
        "timezone": "America/Sao_Paulo",
        "lat": -22.8089,
        "lng": -43.2436
    },
    {
        "code": "CGH",
        "name": "São Paulo/Congonhas Airport",
        "city": "São Paulo",
        "country": "Brazil",
        "timezone": "America/Sao_Paulo",
        "lat": -23.626111,
        "lng": -46.656389
    },
    {
        "code": "JFK",
        "name": "John F. Kennedy International Airport",
        "city": "New York",
        "country": "United States",
        "timezone": "America/New_York",
        "lat": 40.6413,
        "lng": -73.7781
    },
    {
        "code": "DXB",
        "name": "Dubai International Airport",
        "city": "Dubai",
        "country": "United Arab Emirates",
        "timezone": "Asia/Dubai",
        "lat": 25.2532,
        "lng": 55.3657
    },
    {
        "code": "LHR",
        "name": "Heathrow Airport",
        "city": "London",
        "country": "United Kingdom",
        "timezone": "Europe/London",
        "lat": 51.4700,
        "lng": -0.4543
    },
    {
        "code": "CDG",
        "name": "Charles de Gaulle International Airport",
        "city": "Paris",
        "country": "France",
        "timezone": "Europe/Paris",
        "lat": 49.0097,
        "lng": 2.5479
    },
    {
        "code": "HND",
        "name": "Tokyo Haneda Airport",
        "city": "Tokyo",
        "country": "Japan",
        "timezone": "Asia/Tokyo",
        "lat": 35.5494,
        "lng": 139.7798
    },
    {
        "code": "LIS",
        "name": "Humberto Delgado Airport",
        "city": "Lisbon",
        "country": "Portugal",
        "timezone": "Europe/Lisbon",
        "lat": 38.7756,
        "lng": -9.1354
    },
    {
        "code": "MIA",
        "name": "Miami International Airport",
        "city": "Miami",
        "country": "United States",
        "timezone": "America/New_York",
        "lat": 25.7959,
        "lng": -80.2870
    }
]